Id,Time,RPM_SET_POINT,PowerCenter_RPM,HP_ACC_Press_PT18_Bar,Desalination_Press_PT20_Bar,Brine_Out_Press_PT13_Bar,LP_ACC_Press_PT17_Bar,BMS_CURRENT_A,CT_Current_Controller_A,Roboteq_Current_A,Roboteq_Voltage_V,BMS_Voltage,BMS_SOC_percent,VHP_Manifold_Pressure_PT21,VertDisZLA1,VertDisZLA2,VertDisZLA3,theta1,theta2,theta3,LP_Cartridge_Filter_FM01_m3h,FW_OUT_FM02_m3h,BRINE_OUT_FM03_m3h,PowerCenter_Out_FM04_m3h,PowerCenter_In_FM05_m3h,FW_TK_PT14_bar,Booster_Suction_PT15_bar,Booster_Discharge_PT16_bar,PowerCenter_Out_PT19_bar,ROT1_deg,ROT2_deg,ROT3_deg,MRU_Surge_m,MRU_Sway_m,MRU_Heave_m,MRU_Yaw_deg2,MRU_Pitch_deg,MRU_Roll_deg
1,19/04/2024 7:47:00,0,,0,0,1.00875,6.080625,0,2.962524,,,0,0,5.125,79.98159,0,26.07731,0.004733468,-0.02539484,0.02066137,0,0,0.00495,0.0075,-0.0165,-20.47875,1.03,1.0825,0.03125,84.94875,70.27312,76.88813,-0.1116288,-0.01504358,0.02608081,18.74794,-88.35925,-171.2446
2,19/04/2024 7:47:02,0,,0,0,1.00125,6.080625,0,-1.724976,,,0,0,5.125,79.98159,0,26.07731,0.005308042,-0.02539484,0.02128162,0,0.0044,0,0.0075,-0.0165,-20.47875,1.021875,1.090625,0,84.94875,70.27312,76.88813,-0.1577948,0.03964484,0.05872892,18.68431,-88.31802,-171.9833
3,19/04/2024 7:47:03,0,,0,0,1.00875,6.080625,0,3.412506,,,0,0,5.125,79.98159,0,26.07731,0.004733468,-0.02539484,0.02066137,0,0.0044,0,0.0075,-0.0165,-20.47875,1.021875,1.090625,0.03125,84.94875,70.27312,76.88813,-0.1387501,0.05576065,0.120429,22.39859,-88.45837,-176.4487
4,19/04/2024 7:47:05,0,,0,0,1.00125,6.08875,0,1.087524,,,0,0,5.125,83.10778,0,26.07731,0.004733468,-0.02539484,0.02066137,0,0.0044,0,0.0075,-0.018,-20.47875,1.021875,1.090625,0.03125,84.94875,70.27312,76.88813,-0.1795327,0.07738613,0.08322073,23.03473,-88.05989,-177.9612
5,19/04/2024 7:47:06,0,,0,0,1.00125,6.080625,0,-1.724976,,,0,0,5.125,79.98159,0,26.07731,0.004733468,-0.02539484,0.02066137,0,0.0044,0,0.0075,-0.0165,-20.47875,1.021875,1.090625,0,84.88126,70.27312,76.88813,-0.1801701,0.07520907,0.0329851,24.19887,-87.84476,-179.8588
6,19/04/2024 7:47:08,0,,0,0,0.993125,6.080625,0,-0.3374939,,,0,0,5.125,83.10778,0,26.07731,0.005308042,-0.02539484,0.02066137,0,0.0044,0,0.0075,-0.0165,-20.47875,1.03,1.090625,0,84.88126,70.27312,76.88813,-0.2260708,0.07892883,0.08503252,24.12771,-87.45937,179.2468
7,19/04/2024 7:47:09,0,,0,0,1.00875,6.08875,0,1.087524,,,0,0,5.125,79.98159,0,26.07731,0.005308042,-0.02539484,0.02066137,0,0.0044,0.00495,0.0075,-0.0165,-20.47875,1.021875,1.090625,0.03125,84.88126,70.27312,76.88813,-0.2754201,0.1082938,0.01944127,20.38705,-87.20263,-177.7839
8,19/04/2024 7:47:11,0,,0,0,1.00875,6.080625,0,2.962524,,,0,0,5.125,83.10778,0,26.07731,0.004733468,-0.02539484,0.02066137,0,0,0,0.0075,-0.0165,-20.47875,1.03,1.090625,0.03125,84.88126,70.20563,76.88813,-0.3116326,0.1307686,0.008262759,19.08765,-87.18526,-177.0642
9,19/04/2024 7:47:12,0,,0.0625,0,1.00875,6.08875,0,2.025024,,,0,0,5.125,79.98159,0,26.07731,0.005308042,-0.02539484,0.02128162,0,0.0044,0,0.0075,-0.0165,-20.47875,1.021875,1.090625,0,84.94875,70.20563,76.88813,-0.3390876,0.175933,-0.02608078,15.06228,-87.3158,-173.7941
10,19/04/2024 7:47:14,0,,0,0,1.016875,6.08875,0,-0.3374939,,,0,0,5.125,79.98159,0,26.07731,0.004733468,-0.02539484,0.02128162,0,0,0,0.0075,-0.0165,-20.47875,1.021875,1.090625,0,84.94875,70.27312,76.88813,-0.3710362,0.2005671,-0.04483396,12.84933,-87.43468,-172.1209
11,19/04/2024 7:47:15,0,,0.0625,0,1.00875,6.080625,0,3.412506,,,0,0,5.125,83.10778,0,26.07731,0.005308042,-0.02539484,0.02066137,0,0,0,0.0165,-0.0165,-20.47875,1.03,1.090625,0,84.88126,70.27312,76.88813,-0.3753078,0.1642201,0.07603118,19.2235,-87.63937,-179.1424
12,19/04/2024 7:47:17,0,,0,0,1.00875,6.08875,0,1.087524,,,0,0,5.125,79.98159,0,26.07731,0.004733468,-0.02539484,0.02066137,0,0.0044,0.00495,0.0075,-0.0165,-20.47875,1.021875,1.090625,0.03125,84.88126,70.27312,76.88813,-0.4080648,0.1566512,-0.001425142,22.27872,-87.59652,177.2457
13,19/04/2024 7:47:18,0,,0.0625,0,1.00875,6.080625,0,-0.3374939,,,0,0,5.125,83.10778,0,26.07731,0.004733468,-0.02658966,0.02128162,0,0.0044,0.00495,0.0075,-0.0165,-20.47875,1.03,1.090625,0,84.88126,70.27312,76.88813,-0.433325,0.127134,0.02564523,27.24365,-87.45409,171.7407
14,19/04/2024 7:47:20,0,,0.0625,0,1.00875,6.080625,0,2.025024,,,0,0,5.125,79.98159,0,26.07731,0.004733468,-0.02658966,0.02066137,0,0.0044,0,0.0075,-0.0165,-20.47875,1.03,1.090625,0,84.94875,70.27312,76.88813,-0.4782065,0.07658745,0.03604152,32.58316,-87.105,165.6572
15,19/04/2024 7:47:21,0,,0,0,1.00875,6.08875,0,-0.2999573,,,0,0,5.125,83.10778,0,26.07731,0.004733468,-0.02539484,0.02066137,0,0.0044,0,0.0075,-0.0165,-20.47875,1.021875,1.090625,0,84.88126,70.27312,76.88813,-0.5212972,0.07090366,-0.02897505,33.42075,-86.76698,164.2807
16,19/04/2024 7:47:23,0,,0,0,1.00125,6.08875,0,-1.724976,,,0,0,5.09375,83.10778,0,26.07731,0.004733468,-0.02539484,0.02128162,0,0.0044,0.00495,0.0075,-0.0165,-20.47875,1.03,1.090625,0.03125,84.94875,70.27312,76.88813,-0.5385439,0.1203601,0.009146516,30.79024,-86.78689,166.4531
17,19/04/2024 7:47:24,0,,0,0,1.00875,6.08875,0,2.025024,,,0,0,5.09375,79.98159,0,26.07731,0.005308042,-0.02539484,0.02066137,0,0.0044,0.00495,0.0075,-0.0165,-20.47875,1.021875,1.090625,0,84.94875,70.27312,76.88813,-0.5542757,0.1497364,-0.00403038,29.58324,-87.08912,167.2502
18,19/04/2024 7:47:26,0,,0,0,1.00125,6.08875,0,2.475006,,,0,0,5.09375,79.98159,0,26.07731,0.004733468,-0.02539484,0.02128162,0,0.0044,0,0.0075,-0.0165,-20.47875,1.03,1.090625,0,84.88126,70.27312,76.88813,-0.6136637,0.1742419,-0.09620338,26.76729,-87.34345,169.776
19,19/04/2024 7:47:27,0,,0.0625,0,1.00875,6.080625,0,-0.7874756,,,0,0,5.09375,79.98159,0,26.07731,0.004733468,-0.02539484,0.02066137,0,0,0,0.0075,-0.0165,-20.47875,1.03,1.090625,0.03125,84.88126,70.27312,76.88813,-0.6049131,0.1848263,-0.01120061,23.03699,-87.73888,173.2389
20,19/04/2024 7:47:29,0,,0,0,1.00875,6.08875,0,-0.2999573,,,0,0,5.125,79.98159,0,26.07731,0.004733468,-0.02539484,0.02128162,0,0.0044,0,0.0075,-0.0165,-20.47875,1.021875,1.090625,0.03125,84.94875,70.27312,76.88813,-0.5339216,0.153808,0.1266298,20.3824,-88.3656,175.7257
21,19/04/2024 7:47:31,0,,0,0,1.00875,6.080625,0,2.475006,,,0,0,5.125,79.98159,0,26.07731,0.005308042,-0.02539484,0.02066137,0,0.0044,0,0.0075,-0.0165,-20.47875,1.021875,1.090625,0.03125,84.94875,70.27312,76.88813,-0.510112,0.07022476,0.07855737,27.76817,-88.70138,167.998
22,19/04/2024 7:47:32,0,,0,0,1.00875,6.080625,0,-0.3374939,,,0,0,5.125,79.98159,0,26.07731,0.004733468,-0.02658966,0.02128162,0,0.0044,0,0.0075,-0.0165,-20.47875,1.021875,1.090625,0,84.88126,70.27312,76.88813,-0.553831,0.02111922,-0.01990036,36.24866,-88.58701,159.655
23,19/04/2024 7:47:33,0,,0,0,1.00125,6.09625,0,-1.724976,,,0,0,5.125,83.10778,0,26.07731,0.004733468,-0.02539484,0.02066137,0,0.0044,0,0.0075,-0.0165,-20.47875,1.03,1.090625,0,84.88126,70.20563,76.88813,-0.5961559,0.04672924,-0.05961826,40.76416,-88.45636,154.4788
24,19/04/2024 7:47:34,0,,0.0625,0,1.00125,6.09625,0,-1.724976,,,0,0,5.125,83.10778,0,26.07731,0.004733468,-0.02539484,0.02066137,0,0.0044,0,0.0075,-0.0165,-20.47875,1.03,1.090625,0,84.88126,70.20563,76.88813,-0.5961559,0.04672924,-0.05961826,40.76416,-88.45636,154.4788
25,19/04/2024 7:47:35,0,,0,0,1.00125,6.09625,0,3.450043,,,0,0,5.125,79.98159,0,26.07731,0.004733468,-0.02539484,0.02128162,0,0,0.00495,0.0075,-0.0165,-20.47875,1.021875,1.090625,0.03125,84.88126,70.27312,76.88813,-0.6701034,0.09001108,-0.08616173,39.96345,-87.9566,155.1229
26,19/04/2024 7:47:37,0,,0,0,1.00875,6.08875,0,1.087524,,,0,0,5.09375,79.98159,0,26.07731,0.004733468,-0.02539484,0.02066137,0,0,0,0.0075,-0.0165,-20.47875,1.03,1.090625,0.03125,84.94875,70.27312,76.88813,-0.684232,0.09027843,-0.002813582,41.63126,-87.48378,153.2617
27,19/04/2024 7:47:38,0,,0.0625,0,1.00875,6.08875,0,1.087524,,,0,0,5.125,79.98159,0,26.07731,0.005308042,-0.02539484,0.02066137,0,0.0044,0,0.0075,-0.0165,-20.47875,1.021875,1.090625,0.03125,84.94875,70.27312,76.88813,-0.6590858,0.07298686,0.03571757,41.67225,-87.15178,153.1031
28,19/04/2024 7:47:40,0,,0,0,1.00875,6.08875,0,2.962524,,,0,0,5.125,79.98159,0,26.07731,0.005308042,-0.02539484,0.02128162,0,0.0044,0,0.0075,-0.0165,-20.47875,1.03,1.090625,0,84.88126,70.27312,76.88813,-0.6000988,0.07562282,-0.02398551,40.08833,-87.14088,154.6069
29,19/04/2024 7:47:41,0,,0,0,1.00875,6.09625,0,-0.7874756,,,0,0,5.125,83.10778,0,26.07731,0.005308042,-0.02539484,0.02066137,0,0.0044,0.00495,0.0075,-0.0165,-20.47875,1.03,1.090625,0.03125,84.88126,70.27312,76.815,-0.566999,0.1046992,-0.09419698,36.55832,-87.32819,158.0978
30,19/04/2024 7:47:43,0,,0,0,1.00875,6.08875,0,0.6000061,,,0,0,5.125,79.98159,0,26.07731,0.005308042,-0.02539484,0.02066137,0,0,0,0.0075,-0.0165,-20.47875,1.03,1.090625,0.03125,84.88126,70.20563,76.88813,-0.5591975,0.1372797,-0.105407,31.24149,-87.54192,163.3969
31,19/04/2024 7:47:44,0,,0.0625,0,1.00125,6.080625,0,4.837524,,,0,0,5.09375,79.98159,0,26.07731,0.004733468,-0.02539484,0.02066137,0,0.0044,0.00495,0.0075,-0.0165,-20.47875,1.03,1.090625,0.03125,84.94875,70.27312,76.88813,-0.5632997,0.1668972,-0.05180936,24.37249,-87.73804,170.2522
32,19/04/2024 7:47:46,0,,0,0,1.00875,6.08875,0,-1.724976,,,0,0,5.125,79.98159,0,26.07731,0.005308042,-0.02539484,0.02066137,0,0,0.00495,0.0075,-0.0165,-20.47875,1.021875,1.090625,0.03125,84.88126,70.27312,76.88813,-0.5581154,0.1667831,0.003182133,17.52323,-87.81177,176.9251
33,19/04/2024 7:47:47,0,,0.0625,0,1.00875,6.080625,0,0.6000061,,,0,0,5.125,79.98159,0,26.07731,0.004733468,-0.02658966,0.02128162,0,0.0044,0.00495,0.0075,-0.0165,-20.47875,1.03,1.090625,0.03125,84.88126,70.27312,76.88813,-0.4943301,0.1208449,0.0590245,16.05368,-88.05175,178.4571
34,19/04/2024 7:47:49,0,,0,0,1.00875,6.08875,0,-0.3374939,,,0,0,5.125,79.98159,0,26.07731,0.004733468,-0.02539484,0.02066137,0,0.0044,0,0.0075,-0.0165,-20.47875,1.03,1.090625,0.03125,84.88126,70.27312,76.88813,-0.4471217,0.03398473,0.02426612,22.46204,-88.07189,172.4292
35,19/04/2024 7:47:50,0,,0.0625,0,1.00125,6.08875,0,2.512543,,,0,0,5.125,79.98159,0,26.07731,0.004733468,-0.02658966,0.02128162,0,0.0044,0,0.0075,-0.0165,-20.47875,1.021875,1.090625,0,84.94875,70.27312,76.88813,-0.4243272,0.0001773667,-0.07150531,30.26756,-87.94215,164.3242
36,19/04/2024 7:47:52,0,,0.0625,0,1.00125,6.080625,0,1.087524,,,0,0,5.09375,79.98159,0,26.07731,0.005308042,-0.02658966,0.02066137,0,0.0044,0.00495,0.0075,-0.0165,-20.47875,1.021875,1.0825,0.03125,84.88126,70.20563,76.88813,-0.4377564,0.06064736,-0.09566337,31.85932,-87.62216,162.4288
37,19/04/2024 7:47:53,0,,0,0,1.00875,6.08875,0,2.475006,,,0,0,5.09375,79.98159,0,26.07731,0.004733468,-0.02539484,0.02128162,0,0.0044,0,0.0075,-0.0165,-20.47875,1.014375,1.090625,0,84.88126,70.27312,76.88813,-0.4962401,0.0852541,-0.06660505,37.43242,-86.90503,156.7645
38,19/04/2024 7:47:55,0,,0,0,1.00875,6.08875,0,0.6375427,,,0,0,5.09375,79.98159,0,26.07731,0.004733468,-0.02658966,0.02066137,0,0,0,0.0075,-0.0165,-20.47875,1.03,1.090625,0.03125,84.94875,70.20563,76.88813,-0.5449908,0.1279624,-0.08970538,34.91932,-85.96237,159.2181
39,19/04/2024 7:47:56,0,,0,0,1.00875,6.08875,0,-0.3374939,,,0,0,5.09375,83.10778,0,26.07731,0.004733468,-0.02658966,0.02066137,0,0,0.00495,0.0075,-0.0165,-20.47875,1.03,1.090625,0.03125,84.94875,70.20563,76.88813,-0.476495,0.1392155,0.01494506,32.28885,-85.79467,161.8497
40,19/04/2024 7:47:58,0,,0,0,1.016875,6.080625,0,0.1500244,,,0,0,5.09375,83.10778,0,26.07731,0.005308042,-0.02539484,0.02066137,0,0.0044,0,0.0075,-0.0165,-20.47875,1.021875,1.090625,0.03125,84.94875,70.27312,76.88813,-0.4136291,0.1215125,0.02387239,27.00045,-85.86954,166.9465
41,19/04/2024 7:47:59,0,,0,0,1.016875,6.08875,0,1.575043,,,0,0,5.09375,83.10778,0,26.07731,0.005308042,-0.02658966,0.02066137,0,0,0.00495,0.0075,-0.0165,-20.47875,1.03,1.090625,0.03125,84.94875,70.20563,76.88813,-0.3630561,0.09951038,-0.07463438,19.55871,-86.1344,174.4852
42,19/04/2024 7:48:01,0,,0,0,1.016875,6.073125,0,0.6000061,,,0,0,5.125,79.98159,0,26.07731,0.004733468,-0.02539484,0.02128162,0,0.0044,0,0.0075,-0.0165,-20.47875,1.03,1.090625,0.03125,84.94875,70.27312,76.88813,-0.3221299,0.09830954,-0.01445239,6.473984,-86.41048,-172.336
43,19/04/2024 7:48:03,0,,0,0,1.00875,6.080625,0,-0.3374939,,,0,0,5.09375,79.98159,0,26.07731,0.004733468,-0.02539484,0.02128162,0,0.0044,0,0.0165,-0.0165,-20.47875,1.03,1.090625,0.03125,84.88126,70.27312,76.88813,-0.2673884,0.09182914,0.06022979,355.5524,-86.63382,-161.2301
44,19/04/2024 7:48:04,0,,0.0625,0,1.016875,6.073125,0,1.087524,,,0,0,5.125,83.10778,0,26.07731,0.005308042,-0.02539484,0.02128162,0,0.0044,0,0.0075,-0.0165,-20.47875,1.03,1.090625,0,84.88126,70.20563,76.88813,-0.2724706,0.07959248,0.008533195,350.9415,-86.63979,-156.4059
45,19/04/2024 7:48:06,0,,0.0625,0,1.016875,6.080625,0,-0.3374939,,,0,0,5.125,79.98159,0,26.07731,0.004733468,-0.02539484,0.02066137,0,0.0044,0,0.0075,-0.0165,-20.47875,1.021875,1.0825,0,84.94875,70.20563,76.88813,-0.3173758,0.06294616,0.02491884,353.6596,-86.41228,-159.4496
46,19/04/2024 7:48:07,0,,0.0625,0,1.016875,6.080625,0,3.412506,,,0,0,5.09375,83.10778,0,26.07731,0.004733468,-0.02539484,0.02066137,0,0.0044,0,0.0075,-0.0165,-20.47875,1.021875,1.090625,0,84.94875,70.27312,76.88813,-0.3151446,0.04171776,0.02869846,359.2456,-86.5369,-165.129
47,19/04/2024 7:48:09,0,,0.0625,0,1.016875,6.080625,0,1.537506,,,0,0,5.125,79.98159,0,26.07731,0.004733468,-0.02658966,0.02128162,0,0.0044,0,0.0075,-0.0165,-20.47875,1.021875,1.090625,0.03125,84.88126,70.20563,76.88813,-0.4181291,-0.002455713,-0.07088546,12.78956,-86.095,-179.8191
48,19/04/2024 7:48:10,0,,0.0625,0,1.016875,6.080625,0,1.087524,,,0,0,5.09375,83.10778,0,26.07731,0.004733468,-0.02539484,0.02128162,0,0.0044,0.00495,0.0165,-0.0165,-20.47875,1.021875,1.090625,0.03125,84.88126,70.20563,76.88813,-0.4735704,0.01036372,-0.1086956,20.99505,-85.67655,171.4699
49,19/04/2024 7:48:12,0,,0,0,1.024375,6.080625,0,-0.3374939,,,0,0,5.09375,83.10778,0,26.07731,0.004733468,-0.02539484,0.02128162,0,0,0,0.0075,-0.0165,-20.47875,1.03,1.090625,0.03125,84.94875,70.27312,76.88813,-0.4478795,0.05173872,0.0184257,24.9854,-85.63672,166.8799
50,19/04/2024 7:48:13,0,,0.0625,0,1.016875,6.08875,0,2.512543,,,0,0,5.09375,83.10778,0,26.07731,0.004733468,-0.02539484,0.02128162,0,0.0044,0,0.0165,-0.0165,-20.47875,1.03,1.090625,0,84.94875,70.20563,76.88813,-0.3910961,0.0614424,0.1266897,28.0776,-85.81639,163.2724
51,19/04/2024 7:48:15,0,,0.0625,0,1.016875,6.08875,0,2.475006,,,0,0,5.125,79.98159,0,26.07731,0.004733468,-0.02539484,0.02066137,0,0.0044,0.00495,0.0075,-0.0165,-20.47875,1.021875,1.090625,0.03125,84.88126,70.27312,76.88813,-0.361968,0.08717775,0.06124249,27.86196,-86.13485,162.9538
52,19/04/2024 7:48:16,0,,0,0,1.016875,6.080625,0,0.6375427,,,0,0,5.09375,79.98159,0,26.07731,0.005308042,-0.02539484,0.02066137,0,0.0044,0,0.0075,-0.015,-20.47875,1.03,1.090625,0.03125,84.94875,70.20563,76.88813,-0.3573197,0.1335598,0.0304715,22.04755,-86.64996,168.4972
53,19/04/2024 7:48:18,0,,0.0625,0,1.016875,6.08875,0,2.512543,,,0,0,5.125,83.10778,0,26.07731,0.004733468,-0.02539484,0.02066137,0,0,0,0.0165,-0.0165,-20.47875,1.021875,1.090625,0,84.88126,70.27312,76.88813,-0.4173155,0.1601455,0.04206621,11.56547,-86.87025,179.0795
54,19/04/2024 7:48:19,0,,0,0,1.016875,6.08875,0,2.475006,,,0,0,5.09375,79.98159,0,26.07731,0.005308042,-0.02539484,0.02128162,0,0.0044,0,0.0075,-0.0165,-20.47875,1.021875,1.090625,0.03125,84.88126,70.27312,76.88813,-0.482186,0.1648317,-0.05107243,3.403837,-86.57983,-173.1352
55,19/04/2024 7:48:21,0,,0.0625,0,1.00875,6.080625,0,1.537506,,,0,0,5.125,83.10778,0,26.07731,0.005308042,-0.02539484,0.02066137,0,0,0.00495,0.0165,-0.0165,-20.47875,1.021875,1.090625,0.03125,84.94875,70.27312,76.88813,-0.5009984,0.1827114,-0.04012825,355.9461,-86.23216,-165.5505
56,19/04/2024 7:48:22,0,,0.0625,0,1.016875,6.073125,0,1.087524,,,0,0,5.09375,79.98159,0,26.07731,0.004733468,-0.02539484,0.02128162,0,0,0.00495,0.0165,-0.0165,-20.47875,1.03,1.0825,0.03125,84.88126,70.27312,76.88813,-0.480194,0.169987,0.02127672,353.4731,-85.95525,-163.2611
57,19/04/2024 7:48:24,0,,0,0,1.016875,6.073125,0,2.025024,,,0,0,5.09375,79.98159,0,26.07731,0.004733468,-0.02658966,0.02128162,0,0.0044,0.00495,0.0075,-0.0165,-20.47875,1.021875,1.090625,0,84.88126,70.27312,76.88813,-0.3394655,0.1083308,0.04427838,354.2558,-86.27402,-164.2222
58,19/04/2024 7:48:26,0,,0,0,1.00875,6.080625,0,0.6375427,,,0,0,5.09375,83.10778,0,26.07731,0.004733468,-0.02539484,0.02128162,0,0,0,0.0075,-0.0165,-20.47875,1.03,1.090625,0,84.88126,70.27312,76.88813,-0.2310822,0.02868591,0.1343178,1.694941,-86.81737,-171.918
59,19/04/2024 7:48:27,0,,0.0625,0,1.00875,6.08875,0,1.575043,,,0,0,5.09375,79.98159,0,26.07731,0.005308042,-0.02539484,0.02128162,0,0.0044,0,0.0165,-0.0165,-20.47875,1.021875,1.090625,0.03125,84.88126,70.27312,76.88813,-0.2716285,-0.02033067,-0.04514419,15.93339,-86.85908,173.972
60,19/04/2024 7:48:29,0,,0,0,1.016875,6.080625,0,1.087524,,,0,0,5.125,83.10778,0,26.07731,0.005308042,-0.02658966,0.02066137,0,0.0044,0,0.0165,-0.0165,-20.47875,1.03,1.090625,0.03125,84.88126,70.27312,76.88813,-0.3491396,0.02167139,-0.1491526,26.89451,-86.76366,162.635
61,19/04/2024 7:48:30,0,,0,0,1.00125,6.080625,0,3.412506,,,0,0,5.09375,79.98159,0,26.07731,0.005308042,-0.02539484,0.02066137,0,0.0044,0,0.0075,-0.0165,-20.47875,1.021875,1.090625,0.03125,84.88126,70.27312,76.88813,-0.4027687,0.07036866,-0.0133466,32.84664,-86.57663,156.4194
62,19/04/2024 7:48:32,0,,0,0,1.016875,6.08875,0,1.537506,,,0,0,5.125,79.98159,0,26.07731,0.004733468,-0.02539484,0.02128162,0,0,0,0.0075,-0.0165,-20.47875,1.03,1.090625,0,84.88126,70.20563,76.88813,-0.3936777,0.04811234,0.1022566,37.13677,-86.16875,151.8459
63,19/04/2024 7:48:33,0,,0.0625,0,1.016875,6.080625,0,0.6000061,,,0,0,5.09375,83.10778,0,26.07731,0.005308042,-0.02539484,0.02128162,0,0.0044,0.00495,0.0075,-0.0165,-20.47875,1.03,1.090625,0.03125,84.88126,70.20563,76.88813,-0.2846625,0.05855608,0.1117195,35.27194,-86.64819,153.6284
64,19/04/2024 7:48:35,0,,0.0625,0,1.00125,6.080625,0,2.475006,,,0,0,5.125,79.98159,0,26.07731,0.005308042,-0.02658966,0.02066137,0,0.0044,0.00495,0.0165,-0.0165,-20.47875,1.021875,1.090625,0,84.88126,70.27312,76.88813,-0.2139318,0.08158559,0.002242261,23.99734,-87.44152,164.7132
65,19/04/2024 7:48:36,0,,0.0625,0,1.00875,6.08875,0,1.575043,,,0,0,5.125,79.98159,0,26.07731,0.004733468,-0.02658966,0.02066137,0,0.0044,0.00495,0.0075,-0.0165,-20.47875,1.03,1.090625,0.03125,84.94875,70.27312,76.88813,-0.2168035,0.1167492,-0.1083177,3.9881,-87.68358,-175.2035
66,19/04/2024 7:48:38,0,,0,0,1.00875,6.080625,0,-1.724976,,,0,0,5.125,83.10778,0,26.07731,0.004733468,-0.02539484,0.02066137,0,0,0,0.0075,-0.0165,-20.47875,1.03,1.090625,0,84.94875,70.20563,76.88813,-0.2766673,0.133396,-0.05671947,351.4153,-87.05371,-162.3336
67,19/04/2024 7:48:39,0,,0.0625,0,1.00875,6.073125,0,0.1500244,,,0,0,5.125,83.10778,0,26.07731,0.004733468,-0.02539484,0.02066137,0,0.0044,0,0.0075,-0.0165,-20.47875,1.021875,1.090625,0,84.88126,70.20563,76.88813,-0.3815874,0.08529764,0.008465195,354.7037,-86.09908,-166.2093
68,19/04/2024 7:48:41,0,,0,0,1.016875,6.080625,0,1.087524,,,0,0,5.09375,79.98159,0,26.07731,0.004733468,-0.02539484,0.02066137,0,0,0,0.0075,-0.0165,-20.47875,1.021875,1.090625,0,84.88126,70.20563,76.88813,-0.417137,0.04152624,-0.02604173,356.597,-85.46906,-168.7683
69,19/04/2024 7:48:42,0,,0,0,1.016875,6.073125,0,0.6375427,,,0,0,5.09375,79.98159,0,26.07731,0.004733468,-0.02539484,0.02128162,0,0.0044,0.00495,0.0075,-0.0165,-20.47875,1.03,1.090625,0,84.94875,70.27312,76.88813,-0.3379057,0.02692043,-0.001169995,356.2864,-85.54931,-168.9344
70,19/04/2024 7:48:44,0,,0.0625,0,1.016875,6.080625,0,1.087524,,,0,0,5.09375,79.98159,0,26.07731,0.004733468,-0.02539484,0.02066137,0,0.0044,0.00495,0.0075,-0.0165,-20.47875,1.021875,1.090625,0.03125,84.94875,70.27312,76.88813,-0.2497775,-0.01004531,0.02807283,356.9883,-85.90804,-170.1406
71,19/04/2024 7:48:46,0,,0,0,1.016875,6.073125,0,1.087524,,,0,0,5.09375,83.10778,0,26.07731,0.005308042,-0.02539484,0.02066137,0,0.0044,0,0.0075,-0.0165,-20.47875,1.03,1.0825,0.03125,84.88126,70.20563,76.88813,-0.2324285,-0.05501144,-0.004075183,0.03953665,-86.44714,-173.5893
72,19/04/2024 7:48:47,0,,0,0,1.016875,6.080625,0,3.450043,,,0,0,5.09375,79.98159,0,26.07731,0.004733468,-0.02539484,0.02066137,0,0.0044,0.00495,0.0075,-0.0165,-20.47875,1.03,1.090625,0.03125,84.94875,70.27312,76.88813,-0.2212401,-0.002747547,-0.03169372,355.2842,-87.33472,-169.1567
73,19/04/2024 7:48:49,0,,0,0,1.00875,6.080625,0,0.6375427,,,0,0,5.125,79.98159,0,26.07731,0.004733468,-0.02658966,0.02128162,0,0,0.00495,0.0075,-0.0165,-20.47875,1.03,1.090625,0.03125,84.94875,70.27312,76.88813,-0.2893277,0.05151449,0.007756002,351.382,-87.77353,-165.5243
74,19/04/2024 7:48:50,0,,0.0625,0,1.00875,6.08875,0,1.087524,,,0,0,5.125,79.98159,0,26.07731,0.004733468,-0.02539484,0.02066137,0,0,0,0.0075,-0.0165,-20.47875,1.03,1.090625,0,84.88126,70.27312,76.88813,-0.3964926,0.06530564,-0.01051446,354.9732,-87.54604,-169.4502
75,19/04/2024 7:48:52,0,,0,0,1.00125,6.08875,0,3.412506,,,0,0,5.125,79.98159,0,26.07731,0.004733468,-0.02539484,0.02066137,0,0,0.00495,0.0075,-0.0165,-20.47875,1.03,1.090625,0.03125,84.94875,70.27312,76.88813,-0.4288703,0.08431549,0.009270386,354.0566,-87.25024,-168.8977
76,19/04/2024 7:48:53,0,,0,0,1.00875,6.073125,0,-0.2999573,,,0,0,5.09375,79.98159,0,26.07731,0.005308042,-0.02658966,0.02066137,0,0.0044,0.00495,0.0165,-0.0165,-20.47875,1.021875,1.090625,0.03125,84.94875,70.27312,76.88813,-0.3942237,0.08509808,0.03296338,352.6765,-87.14991,-167.6421
77,19/04/2024 7:48:55,0,,0,0,1.00875,6.08875,0,-0.7874756,,,0,0,5.09375,79.98159,0,26.07731,0.005308042,-0.02539484,0.02128162,0,0.0044,0.00495,0.0165,-0.0165,-20.47875,1.03,1.090625,0.03125,84.88126,70.27312,76.88813,-0.4091529,0.08264584,-0.08463863,353.3121,-86.53889,-168.4347
78,19/04/2024 7:48:56,0,,0.0625,0,1.00875,6.080625,0,0.1500244,,,0,0,5.125,83.10778,0,26.07731,0.004733468,-0.02539484,0.02066137,0,0.0044,0,0.0075,-0.0165,-20.47875,1.03,1.090625,0.03125,84.88126,70.27312,76.88813,-0.3978934,0.1020323,-0.02207631,352.5822,-85.93848,-167.8174
79,19/04/2024 7:48:58,0,,0,0,1.016875,6.080625,0,1.537506,,,0,0,5.09375,79.98159,0,26.07731,0.004733468,-0.02658966,0.02066137,0,0.0044,0,0.0075,-0.0165,-20.47875,1.03,1.090625,0.03125,84.80813,70.27312,76.88813,-0.3257912,0.1107452,0.09113798,350.3789,-85.8898,-165.3811
80,19/04/2024 7:48:59,0,,0.0625,0,1.016875,6.080625,0,2.512543,,,0,0,5.09375,79.98159,0,26.07731,0.004733468,-0.02658966,0.02128162,0,0.0044,0.00495,0.0075,-0.0165,-20.47875,1.021875,1.090625,0.03125,84.94875,70.27312,76.88813,-0.2873693,0.0772585,0.0255493,349.7404,-86.20639,-164.5998
81,19/04/2024 7:49:01,0,,0,0,1.016875,6.065,0,-2.662476,,,0,0,5.09375,79.98159,0,26.07731,0.004733468,-0.02539484,0.02128162,0,0,0,0.0075,-0.0165,-20.47875,1.03,1.090625,0.03125,84.94875,70.27312,76.88813,-0.2777725,0.04233638,0.01866139,349.5416,-86.46521,-164.142
82,19/04/2024 7:49:03,0,,0.0625,0,1.016875,6.080625,0,0.1500244,,,0,0,5.09375,79.98159,0,26.07731,0.004733468,-0.02539484,0.02066137,0,0,0.00495,0.0075,-0.0165,-20.47875,1.021875,1.090625,0,84.88126,70.20563,76.88813,-0.2400208,0.01040899,0.07717778,349.8582,-86.81388,-164.1717
83,19/04/2024 7:49:04,0,,0.0625,0,1.00875,6.080625,0,-0.2999573,,,0,0,5.125,79.98159,0,26.07731,0.004733468,-0.02658966,0.02066137,0,0.0044,0,0.0075,-0.0165,-20.47875,1.021875,1.090625,0,84.88126,70.27312,76.88813,-0.2310679,0.006262463,-0.0004581398,350.6254,-87.0041,-164.5259
84,19/04/2024 7:49:06,0,,0.0625,0,1.00875,6.08875,0,0.6000061,,,0,0,5.125,79.98159,0,26.07731,0.004733468,-0.02539484,0.02066137,0,0.0044,0,0.0075,-0.0165,-20.47875,1.021875,1.090625,0,84.88126,70.27312,76.88813,-0.210629,0.03207253,-0.03546373,351.3487,-87.27402,-164.8832
85,19/04/2024 7:49:07,0,,0,0,1.00875,6.080625,0,3.412506,,,0,0,5.125,79.98159,0,26.07731,0.004733468,-0.02658966,0.02066137,0,0.0044,0,0.0075,-0.0165,-20.47875,1.03,1.090625,0,84.88126,70.27312,76.88813,-0.2029227,0.07560498,-0.0009072859,351.2749,-87.22484,-164.3231
86,19/04/2024 7:49:09,0,,0.0625,0,1.00875,6.080625,0,0.1500244,,,0,0,5.09375,83.10778,0,26.07731,0.003542304,-0.02539484,0.02066137,0,0.0044,0,0.0075,-0.0165,-20.47875,1.021875,1.090625,0,84.94875,70.20563,76.88813,-0.1606202,0.0881981,0.051187,352.7502,-86.96144,-165.2279
87,19/04/2024 7:49:10,0,,0,0,1.00875,6.080625,0,1.087524,,,0,0,5.09375,79.98159,0,26.07731,0.004733468,-0.02658966,0.02128162,0,0.0044,0,0.0075,-0.0165,-20.47875,1.021875,1.090625,0,84.88126,70.27312,76.88813,-0.1184004,0.04965276,0.1144667,353.9085,-86.72506,-165.6163
88,19/04/2024 7:49:12,0,,0,0,1.016875,6.073125,0,2.475006,,,0,0,5.125,79.98159,0,26.07731,0.004733468,-0.02539484,0.02066137,0,0.0044,0.00495,0.0075,-0.0165,-20.47875,1.021875,1.090625,0.03125,84.94875,70.27312,76.88813,-0.07032262,-0.06295869,0.1180369,359.1347,-86.57724,-170.307
89,19/04/2024 7:49:13,0,,0,0,1.016875,6.080625,0,1.087524,,,0,0,5.09375,79.98159,0,26.07731,0.004733468,-0.02539484,0.02128162,0,0.0044,0,0.0075,-0.0165,-20.47875,1.021875,1.090625,0,84.88126,70.27312,76.88813,0.005201754,-0.130434,0.06188505,1.919475,-86.60123,-172.375
90,19/04/2024 7:49:15,0,,0,0,1.00875,6.073125,0,2.475006,,,0,0,5.09375,79.98159,0,26.07731,0.004733468,-0.02539484,0.02128162,0,0,0,0.0165,-0.0165,-20.47875,1.021875,1.090625,0.03125,84.94875,70.20563,76.88813,0.02750747,-0.1280702,0.03712652,3.794509,-86.37396,-173.4286
91,19/04/2024 7:49:16,0,,0.0625,0,1.00875,6.080625,0,1.087524,,,0,0,5.09375,79.98159,0,26.07731,0.004733468,-0.02539484,0.02128162,0,0,0.00495,0.0075,-0.0165,-20.47875,1.021875,1.0825,0,84.88126,70.20563,76.88813,0.026571,-0.05671107,0.0129549,1.516043,-86.23315,-170.4354
92,19/04/2024 7:49:18,0,,0,0,1.00875,6.080625,0,1.087524,,,0,0,5.09375,79.98159,0,26.07731,0.004733468,-0.02658966,0.02066137,0,0.0044,0.00495,0.0075,-0.0165,-20.47875,1.03,1.090625,0.03125,84.94875,70.27312,76.88813,0.08020882,-0.001502328,0.05575613,356.812,-86.50645,-164.6893
93,19/04/2024 7:49:19,0,,0,0,1.00875,6.08875,0,2.025024,,,0,0,5.09375,79.98159,0,26.07731,0.004733468,-0.02539484,0.02066137,0,0,0,0.0075,-0.0165,-20.47875,1.021875,1.090625,0,84.88126,70.27312,76.88813,0.1118254,-0.007217318,0.07636935,354.7714,-86.62856,-161.9999
94,19/04/2024 7:49:21,0,,0,0,1.00875,6.080625,0,-0.7874756,,,0,0,5.09375,79.98159,0,26.07731,0.005308042,-0.02539484,0.02066137,0,0,0,0.0075,-0.0165,-20.47875,1.021875,1.090625,0.03125,84.88126,70.27312,76.88813,0.146782,-0.03265002,0.01212316,351.8492,-86.51237,-158.065
95,19/04/2024 7:49:22,0,,0,0,1.00875,6.073125,0,1.537506,,,0,0,5.125,79.98159,0,26.07731,0.004733468,-0.02539484,0.02066137,0,0.0044,0,0.0075,-0.0165,-20.47875,1.021875,1.090625,0.03125,84.94875,70.27312,76.88813,0.245065,-0.1035555,0.1174007,351.2888,-86.81881,-156.6759
96,19/04/2024 7:49:24,0,,0.0625,0,1.016875,6.073125,0,-0.3374939,,,0,0,5.09375,79.98159,0,26.07731,0.004733468,-0.02539484,0.02066137,0,0,0,0.0075,-0.0165,-20.47875,1.03,1.090625,0,84.88126,70.27312,76.88813,0.3360847,-0.202799,0.1058024,354.9745,-87.19026,-159.3556
97,19/04/2024 7:49:25,0,,0,0,1.00875,6.073125,0,2.025024,,,0,0,5.125,79.98159,0,26.07731,0.004733468,-0.02658966,0.02128162,0,0.0044,0.00495,0.0075,-0.0165,-20.47875,1.03,1.090625,0.03125,84.88126,70.27312,76.88813,0.3414461,-0.2359102,0.002432569,0.4820254,-87.10873,-164.4175
98,19/04/2024 7:49:27,0,,0.0625,0,1.00875,6.080625,0,0.1500244,,,0,0,5.125,79.98159,0,26.07731,0.004733468,-0.02539484,0.02128162,0,0,0,0.0165,-0.0165,-20.47875,1.03,1.090625,0,84.88126,70.20563,76.88813,0.2933938,-0.2339524,0.05343363,6.191654,-86.62292,-169.3986
99,19/04/2024 7:49:28,0,,0.0625,0,1.016875,6.073125,0,0.6375427,,,0,0,5.09375,79.98159,0,26.07731,0.004733468,-0.02539484,0.02128162,0,0.0044,0.00495,0.0075,-0.0165,-20.47875,1.021875,1.090625,0,84.88126,70.27312,76.88813,0.2941336,-0.2262086,0.09518911,10.05386,-86.29108,-172.914
100,19/04/2024 7:49:30,0,,0,0,1.00875,6.073125,0,1.575043,,,0,0,5.09375,79.98159,0,26.07731,0.004733468,-0.02658966,0.02066137,0,0,0,0.0165,-0.0165,-20.47875,1.021875,1.0825,0,84.88126,70.27312,76.88813,0.3647304,-0.2338589,0.119681,15.14277,-86.24315,-177.352
101,19/04/2024 7:49:31,0,,0,0,1.00875,6.073125,0,-1.237457,,,0,0,5.09375,79.98159,0,26.07731,0.005308042,-0.02539484,0.02128162,0,0,0.00495,0.0075,-0.0165,-20.47875,1.021875,1.090625,0,84.88126,70.20563,76.88813,0.3893065,-0.2183839,0.09329697,18.54828,-86.01985,179.5146
102,19/04/2024 7:49:33,0,,0,0,1.016875,6.073125,0,1.537506,,,0,0,5.09375,79.98159,0,26.07731,0.004733468,-0.02539484,0.02066137,0,0,0,0.0075,-0.0165,-20.47875,1.03,1.090625,0,84.88126,70.27312,76.88813,0.4168716,-0.1681148,0.01414624,19.04791,-85.86385,179.4296
103,19/04/2024 7:49:35,0,,0,0,1.00875,6.080625,0,0.1500244,,,0,0,5.09375,79.98159,0,26.07731,0.004733468,-0.02539484,0.02128162,0,0.0044,0.00495,0.0075,-0.0165,-20.47875,1.03,1.090625,0.03125,84.88126,70.27312,76.88813,0.505733,-0.1555681,0.1023064,19.86359,-86.18337,179.0293
104,19/04/2024 7:49:36,0,,0.0625,0,1.00875,6.073125,0,3.900024,,,0,0,5.09375,83.10778,0,26.07731,0.004733468,-0.02539484,0.02128162,0,0.0044,0,0.0075,-0.0165,-20.47875,1.03,1.090625,0.03125,84.88126,70.27312,76.88813,0.5253154,-0.1726388,0.1058362,21.22213,-86.38068,177.6729
105,19/04/2024 7:49:38,0,,0,0,1.00875,6.080625,0,-1.237457,,,0,0,5.09375,79.98159,0,26.07731,0.004733468,-0.02539484,0.02066137,0,0,0,0.0075,-0.0165,-20.47875,1.03,1.090625,0.03125,84.94875,70.27312,76.88813,0.4347349,-0.1602918,-0.001003275,19.10816,-85.87489,179.4644
106,19/04/2024 7:49:39,0,,0.0625,0,1.00875,6.073125,0,2.962524,,,0,0,5.09375,79.98159,0,26.07731,0.004733468,-0.02539484,0.02128162,0,0,0.00495,0.0075,-0.0165,-20.47875,1.03,1.090625,0,84.94875,70.27312,76.88813,0.4707132,-0.1441432,0.1452567,16.05268,-85.9921,-177.7518
107,19/04/2024 7:49:41,0,,0,0,1.00875,6.080625,0,2.512543,,,0,0,5.09375,79.98159,0,26.07731,0.004733468,-0.02539484,0.02066137,0,0.0044,0,0.0165,-0.0165,-20.47875,1.03,1.0825,0.03125,84.88126,70.27312,76.88813,0.5181767,-0.1754428,0.2077217,15.26369,-86.24944,-177.2505
108,19/04/2024 7:49:42,0,,0.0625,0,1.00875,6.080625,0,-0.3374939,,,0,0,5.09375,79.98159,0,26.07731,0.005308042,-0.02658966,0.02066137,0,0.0044,0,0.0075,-0.0165,-20.47875,1.03,1.090625,0,84.88126,70.27312,76.88813,0.5104594,-0.1835409,0.1074084,14.44504,-86.24184,-176.8339
109,19/04/2024 7:49:44,0,,0,0,1.016875,6.08875,0,2.025024,,,0,0,5.09375,79.98159,0,26.07731,0.004733468,-0.02539484,0.02066137,0,0.0044,0.00495,0.0075,-0.0165,-20.47875,1.021875,1.090625,0.03125,84.88126,70.27312,76.88813,0.4978724,-0.1219546,0.09353458,9.328078,-86.17232,-171.914
110,19/04/2024 7:49:45,0,,0,0,1.00875,6.080625,0,0.6375427,,,0,0,5.09375,79.98159,0,26.07731,0.004733468,-0.02539484,0.02066137,0,0.0044,0.00495,0.0075,-0.0165,-20.47875,1.03,1.090625,0.03125,84.88126,70.27312,76.88813,0.477996,-0.07382205,0.1005941,6.374063,-86.24041,-169.2933
111,19/04/2024 7:49:47,0,,0,0,1.016875,6.073125,0,-1.237457,,,0,0,5.09375,83.10778,0,26.07731,0.004733468,-0.02539484,0.02066137,0,0.0044,0,0.0075,-0.0165,-20.47875,1.03,1.0825,0.03125,84.88126,70.27312,76.88813,0.3663506,-0.03618017,0.006355003,5.289325,-85.69615,-168.5564
112,19/04/2024 7:49:48,0,,0,0,1.016875,6.073125,0,1.087524,,,0,0,5.125,79.98159,0,26.07731,0.004733468,-0.02539484,0.02066137,0,0,0.00495,0.0075,-0.0165,-20.47875,1.03,1.090625,0,84.94875,70.20563,76.88813,0.3764934,-0.03005834,0.07075252,4.527221,-85.65413,-168.0856
113,19/04/2024 7:49:50,0,,0.0625,0,1.016875,6.080625,0,1.087524,,,0,0,5.09375,79.98159,0,26.07731,0.004733468,-0.02539484,0.02066137,0,0.0044,0.00495,0.0075,-0.0165,-20.47875,1.03,1.090625,0.03125,84.88126,70.27312,76.88813,0.3923853,-0.03054776,0.05939559,4.657986,-85.81912,-168.5279
114,19/04/2024 7:49:51,0,,0,0,1.016875,6.080625,0,1.087524,,,0,0,5.09375,79.98159,0,26.07731,0.004733468,-0.02539484,0.02066137,0,0.0044,0,0.0075,-0.0165,-20.47875,1.03,1.090625,0.03125,84.88126,70.27312,76.88813,0.3847761,-0.02775062,-0.01381856,6.226992,-85.9012,-170.3523
115,19/04/2024 7:49:53,0,,0,0,1.00875,6.073125,0,2.475006,,,0,0,5.09375,83.10778,0,26.07731,0.004733468,-0.02539484,0.02066137,0,0.0044,0.00495,0.0165,-0.0165,-20.47875,1.03,1.0825,0.03125,84.88126,70.27312,76.88813,0.4232852,-0.03151471,0.09683219,5.710158,-86.39847,-169.984
116,19/04/2024 7:49:54,0,,0,0,1.016875,6.073125,0,0.6000061,,,0,0,5.09375,79.98159,0,26.07731,0.004733468,-0.02539484,0.02066137,0,0,0.00495,0.0075,-0.0165,-20.47875,1.03,1.090625,0.03125,84.94875,70.27312,76.88813,0.3687273,-0.0932626,0.1728329,9.806108,-86.48116,-174.1907
117,19/04/2024 7:49:55,0,,0.0625,0,1.016875,6.073125,0,0.6000061,,,0,0,5.09375,79.98159,0,26.07731,0.004733468,-0.02539484,0.02066137,0,0,0.00495,0.0075,-0.0165,-20.47875,1.03,1.090625,0,84.94875,70.27312,76.88813,0.3687273,-0.0932626,0.1728329,9.806108,-86.48116,-174.1907
118,19/04/2024 7:49:56,0,,0.0625,0,1.016875,6.080625,0,2.962524,,,0,0,5.09375,79.98159,0,26.07731,0.005308042,-0.02539484,0.02066137,0,0.0044,0,0.0075,-0.0165,-20.47875,1.021875,1.090625,0.03125,84.88126,70.27312,76.88813,0.3065087,-0.1189006,0.03340854,10.55167,-86.47116,-175.1825
119,19/04/2024 7:49:58,0,,0,0,1.016875,6.073125,0,-0.3374939,,,0,0,5.125,83.10778,0,26.07731,0.005308042,-0.02658966,0.02066137,0,0.0044,0.00495,0.0075,-0.0165,-20.47875,1.03,1.0825,0.03125,84.88126,70.27312,76.88813,0.2805409,-0.1042277,0.08237661,10.9033,-86.58936,-175.7877
120,19/04/2024 7:49:59,0,,0,0,1.00875,6.08875,0,-0.7874756,,,0,0,5.09375,79.98159,0,26.07731,0.005308042,-0.02539484,0.02066137,0,0,0,0.0075,-0.0165,-20.47875,1.021875,1.090625,0,84.94875,70.27312,76.88813,0.2178601,-0.03800131,0.05522097,7.276277,-86.33887,-172.1634
121,19/04/2024 7:50:01,0,,0,0,1.016875,6.080625,0,-0.2999573,,,0,0,5.09375,79.98159,0,26.07731,0.004733468,-0.02539484,0.02128162,0,0.0044,0,0.0075,-0.0165,-20.47875,1.03,1.0825,0.03125,84.88126,70.20563,76.88813,0.1750386,0.004314326,0.008494017,3.965851,-85.9411,-168.7916
122,19/04/2024 7:50:02,0,,0,0,1.016875,6.073125,0,1.575043,,,0,0,5.09375,79.98159,0,26.07731,0.004733468,-0.02539484,0.02128162,0,0.0044,0,0.0075,-0.0165,-20.47875,1.021875,1.090625,0.03125,84.94875,70.20563,76.88813,0.1863272,-0.001865591,0.1114068,1.513492,-85.76084,-166.2313
123,19/04/2024 7:50:04,0,,0,0,1.00875,6.080625,0,1.087524,,,0,0,5.09375,79.98159,0,26.07731,0.004733468,-0.02539484,0.02066137,0,0.0044,0.00495,0.0165,-0.0165,-20.47875,1.021875,1.0825,0.03125,84.94875,70.27312,76.88813,0.2174335,-0.04326299,0.06002227,0.2281338,-85.89942,-164.6985
124,19/04/2024 7:50:05,0,,0,0,1.00875,6.073125,0,1.087524,,,0,0,5.125,79.98159,0,26.07731,0.004733468,-0.02539484,0.02128162,0,0.0044,0.00495,0.0075,-0.0165,-20.47875,1.03,1.090625,0.03125,84.88126,70.27312,76.88813,0.221553,-0.07682139,0.02745792,0.3364757,-86.00838,-164.6523
125,19/04/2024 7:50:07,0,,0,0,1.016875,6.080625,0,1.575043,,,0,0,5.125,79.98159,0,26.07731,0.005308042,-0.02539484,0.02128162,0,0.0044,0,0.0075,-0.0165,-20.47875,1.03,1.090625,0.03125,84.94875,70.20563,76.88813,0.2119019,-0.08300796,0.01956826,0.1472132,-86.14771,-164.2679
126,19/04/2024 7:50:08,0,,0,0,1.00875,6.073125,0,4.387543,,,0,0,5.125,79.98159,0,26.07731,0.004733468,-0.02539484,0.02066137,0,0.0044,0,0.0075,-0.0165,-20.47875,1.021875,1.090625,0.03125,84.94875,70.20563,76.88813,0.1771687,-0.1012852,0.0568276,3.244116,-86.18616,-167.2024
127,19/04/2024 7:50:10,0,,0,0,1.016875,6.080625,0,-1.274994,,,0,0,5.125,83.10778,0,26.07731,0.004733468,-0.02539484,0.02066137,0,0.0044,0.00495,0.0075,-0.0165,-20.47875,1.021875,1.090625,0,84.88126,70.27312,76.88813,0.1478868,-0.1069967,0.07209486,6.490641,-86.06537,-170.2583
128,19/04/2024 7:50:11,0,,0.0625,0,1.016875,6.080625,0,1.537506,,,0,0,5.125,79.98159,0,26.07731,0.004733468,-0.02539484,0.02066137,0,0.0044,0,0.0075,-0.0165,-20.47875,1.03,1.090625,0,84.94875,70.27312,76.88813,0.1880724,-0.118442,0.1300749,8.923334,-86.10517,-172.5061
129,19/04/2024 7:50:13,0,,0.0625,0,1.016875,6.073125,0,2.025024,,,0,0,5.09375,83.10778,0,26.07731,0.004733468,-0.02658966,0.02066137,0,0.0044,0,0.0075,-0.0165,-20.47875,1.03,1.090625,0.03125,84.88126,70.27312,76.88813,0.2380941,-0.1411114,0.2069499,12.3986,-86.18396,-175.677
130,19/04/2024 7:50:14,0,,0,0,1.016875,6.080625,0,-0.7874756,,,0,0,5.125,79.98159,0,26.07731,0.004733468,-0.02539484,0.02066137,0,0.0044,0,0.0165,-0.0165,-20.47875,1.03,1.090625,0,84.88126,70.20563,76.88813,0.2379528,-0.1546773,0.1079045,15.48473,-86.13887,-178.5405
131,19/04/2024 7:50:16,0,,0,0,1.00875,6.080625,0,0.6375427,,,0,0,5.125,79.98159,0,26.07731,0.004733468,-0.02539484,0.02066137,0,0.0044,0,0.0075,-0.0165,-20.47875,1.021875,1.090625,0,84.88126,70.27312,76.88813,0.2065837,-0.1006448,-0.003495104,14.8889,-86.15584,-177.6893
132,19/04/2024 7:50:17,0,,0,0,1.00875,6.080625,0,-0.7874756,,,0,0,5.125,79.98159,0,26.07731,0.004733468,-0.02658966,0.02066137,0,0.0044,0.00495,0.0075,-0.0165,-20.47875,1.021875,1.090625,0.03125,84.88126,70.20563,76.88813,0.1541699,-0.02267457,-0.02383289,11.41704,-85.93008,-173.9135
133,19/04/2024 7:50:19,0,,0,0,1.016875,6.073125,0,1.087524,,,0,0,5.09375,79.98159,0,26.07731,0.004733468,-0.02539484,0.02066137,0,0.0044,0,0.0165,-0.0165,-20.47875,1.021875,1.090625,0.03125,84.94875,70.27312,76.88813,0.1502572,0.0105976,-0.003187282,8.506034,-85.68377,-170.5447
134,19/04/2024 7:50:20,0,,0,0,1.00875,6.080625,0,1.575043,,,0,0,5.09375,79.98159,0,26.07731,0.004733468,-0.02539484,0.02066137,0,0,0,0.0075,-0.0165,-20.47875,1.021875,1.090625,0.03125,84.88126,70.27312,76.88813,0.1914677,0.004168802,0.0930731,6.474331,-85.43499,-168.2999
135,19/04/2024 7:50:22,0,,0,0,1.016875,6.073125,0,-0.2999573,,,0,0,5.09375,79.98159,0,26.07731,0.004733468,-0.02539484,0.02066137,0,0,0,0.0075,-0.0165,-20.47875,1.021875,1.090625,0,84.88126,70.20563,76.88813,0.3345453,-0.03754136,0.1717465,4.215447,-85.8007,-165.6052
136,19/04/2024 7:50:23,0,,0,0,1.00875,6.073125,0,0.6375427,,,0,0,5.09375,79.98159,0,26.07731,0.004733468,-0.02539484,0.02066137,0,0,0.00495,0.0075,-0.0165,-20.47875,1.03,1.0825,0.03125,84.88126,70.20563,76.88813,0.4166038,-0.087994,0.1854627,4.875157,-86.25998,-165.9834
137,19/04/2024 7:50:25,0,,0,0,1.016875,6.073125,0,-0.7874756,,,0,0,5.09375,79.98159,0,26.07731,0.004733468,-0.02539484,0.02066137,0,0,0,0.0165,-0.0165,-20.47875,1.021875,1.090625,0.03125,84.88126,70.27312,76.88813,0.3902304,-0.1080556,0.09006335,8.930224,-86.2967,-169.7802
138,19/04/2024 7:50:26,0,,0.0625,0,1.016875,6.080625,0,-1.724976,,,0,0,5.09375,79.98159,0,26.07731,0.004733468,-0.02658966,0.02066137,0,0.0044,0.00495,0.0075,-0.0165,-20.47875,1.021875,1.090625,0.03125,84.88126,70.27312,76.88813,0.3464955,-0.06170011,0.0326924,12.19929,-86.04824,-172.8768
139,19/04/2024 7:50:28,0,,0,0,1.00875,6.080625,0,0.6375427,,,0,0,5.09375,83.10778,0,26.07731,0.005308042,-0.02539484,0.02128162,0,0,0.00495,0.0165,-0.0165,-20.47875,1.03,1.090625,0.03125,84.94875,70.27312,76.88813,0.3129928,0.04771703,-0.001898982,10.47542,-85.61687,-170.9748
140,19/04/2024 7:50:29,0,,0.0625,0,1.024375,6.073125,0,-1.237457,,,0,0,5.09375,79.98159,0,26.07731,0.004733468,-0.02658966,0.02066137,0,0.0044,0.00495,0.0165,-0.0165,-20.47875,1.03,1.090625,0.03125,84.88126,70.27312,76.88813,0.3145867,0.07433326,0.05249046,9.528401,-85.20131,-169.8763
141,19/04/2024 7:50:31,0,,0,0,1.024375,6.080625,0,1.537506,,,0,0,5.09375,79.98159,0,26.07731,0.004733468,-0.02539484,0.02128162,0,0.0044,0.00495,0.0075,-0.0165,-20.47875,1.03,1.090625,0.03125,84.88126,70.27312,76.88813,0.3232373,0.001249521,0.138715,10.08411,-84.88333,-170.2405
142,19/04/2024 7:50:32,0,,0,0,1.024375,6.073125,0,2.025024,,,0,0,5.09375,79.98159,0,26.07731,0.004733468,-0.02658966,0.02066137,0,0.0044,0,0.0075,-0.0165,-20.47875,1.03,1.090625,0,84.94875,70.27312,76.88813,0.3464977,-0.09082125,0.0671237,10.99234,-85.03416,-170.9329
143,19/04/2024 7:50:34,0,,0,0,1.016875,6.073125,0,-1.274994,,,0,0,5.09375,79.98159,0,26.07731,0.005308042,-0.02539484,0.02128162,0,0.0044,0,0.0165,-0.0165,-20.47875,1.03,1.090625,0.03125,84.88126,70.27312,76.88813,0.3540097,-0.159692,0.02360159,11.90128,-85.72136,-171.7684
144,19/04/2024 7:50:35,0,,0.0625,0,1.016875,6.080625,0,0.6375427,,,0,0,5.09375,79.98159,0,26.07731,0.004733468,-0.02539484,0.02066137,0,0,0,0.0075,-0.0165,-20.47875,1.021875,1.090625,0,84.88126,70.27312,76.88813,0.3093169,-0.1842278,0.06199978,12.42737,-86.09835,-172.1467
145,19/04/2024 7:50:37,0,,0,0,1.016875,6.073125,0,-0.3374939,,,0,0,5.09375,79.98159,0,26.07731,0.004733468,-0.02539484,0.02066137,0,0.0044,0.00495,0.0075,-0.0165,-20.47875,1.021875,1.090625,0,84.88126,70.27312,76.88813,0.2389549,-0.1947625,0.0853797,13.54148,-86.26708,-173.2142
146,19/04/2024 7:50:38,0,,0,0,1.016875,6.080625,0,0.1500244,,,0,0,5.125,79.98159,0,26.07731,0.005308042,-0.02658966,0.02128162,0,0,0,0.0075,-0.0165,-20.47875,1.021875,1.0825,0.03125,84.88126,70.27312,76.88813,0.1865098,-0.1687679,0.1298712,13.11982,-86.04265,-172.8921
147,19/04/2024 7:50:40,0,,0,0,1.016875,6.08875,0,0.6375427,,,0,0,5.09375,79.98159,0,26.07731,0.004733468,-0.02539484,0.02066137,0,0,0,0.0165,-0.0165,-20.47875,1.03,1.090625,0.03125,84.88126,70.27312,76.88813,0.1909958,-0.1181488,0.1071759,12.59459,-85.98643,-172.5254
148,19/04/2024 7:50:41,0,,0,0,1.00875,6.080625,0,2.025024,,,0,0,5.09375,79.98159,0,26.07731,0.004733468,-0.02539484,0.02066137,0,0.0044,0,0.0165,-0.0165,-20.47875,1.021875,1.090625,0.03125,84.94875,70.27312,76.88813,0.1583561,-0.07611815,0.05851656,12.62731,-85.57359,-172.7814
149,19/04/2024 7:50:43,0,,0,0,1.016875,6.073125,0,2.025024,,,0,0,5.09375,79.98159,0,26.07731,0.004733468,-0.02539484,0.02066137,0,0.0044,0,0.0075,-0.0165,-20.47875,1.021875,1.090625,0,84.94875,70.27312,76.88813,0.123433,-0.03483497,0.03033068,12.37106,-84.93075,-172.8247
150,19/04/2024 7:50:44,0,,0,0,1.016875,6.073125,0,-0.7874756,,,0,0,5.09375,79.98159,0,26.07731,0.005308042,-0.02539484,0.02066137,0,0.0044,0,0.0075,-0.0165,-20.47875,1.021875,1.090625,0.03125,84.88126,70.27312,76.88813,0.1146572,-0.03096805,-0.01281409,12.35915,-84.63682,-173.0256
151,19/04/2024 7:50:46,0,,0,0,1.024375,6.073125,0,1.537506,,,0,0,5.09375,79.98159,0,26.07731,0.004733468,-0.02539484,0.02066137,0,0.0044,0,0.0075,-0.0165,-20.47875,1.03,1.090625,0,84.88126,70.20563,76.88813,0.1231193,-0.05173741,0.08324714,12.36739,-84.7576,-173.299
152,19/04/2024 7:50:47,0,,0,0,1.024375,6.080625,0,2.512543,,,0,0,5.09375,79.98159,0,26.07731,0.004733468,-0.02539484,0.02066137,0,0.0044,0.00495,0.0075,-0.0165,-20.47875,1.03,1.0825,0.03125,84.94875,70.27312,76.88813,0.1481755,-0.09482255,0.08002786,13.95261,-85.23341,-175.086
153,19/04/2024 7:50:49,0,,0,0,1.024375,6.073125,0,2.475006,,,0,0,5.09375,83.10778,0,26.07731,0.004733468,-0.02658966,0.02066137,0,0.0044,0.00495,0.0075,-0.0165,-20.47875,1.03,1.090625,0,84.88126,70.20563,76.88813,0.1603003,-0.1066812,0.04573457,15.05535,-85.75455,-176.4051
154,19/04/2024 7:50:50,0,,0,0,1.016875,6.080625,0,1.087524,,,0,0,5.09375,79.98159,0,26.07731,0.004733468,-0.02539484,0.02066137,0,0,0,0.0165,-0.0165,-20.47875,1.03,1.090625,0.03125,84.88126,70.27312,76.88813,0.1654421,-0.1018189,0.09082234,16.22998,-86.29588,-177.7196
155,19/04/2024 7:50:52,0,,0,0,1.016875,6.080625,0,1.087524,,,0,0,5.09375,79.98159,0,26.07731,0.004733468,-0.02539484,0.02066137,0,0.0044,0,0.0165,-0.0165,-20.47875,1.03,1.090625,0,84.88126,70.20563,76.88813,0.07694604,-0.08114374,0.05526264,15.90221,-86.46087,-177.6863
156,19/04/2024 7:50:53,0,,0,0,1.016875,6.080625,0,-1.274994,,,0,0,5.09375,79.98159,0,26.07731,0.005308042,-0.02539484,0.02128162,0,0.0044,0,0.0075,-0.0165,-20.47875,1.03,1.090625,0.03125,84.94875,70.27312,76.88813,0.005403064,-0.07820506,0.06987852,15.63528,-86.28501,-177.7094
157,19/04/2024 7:50:55,0,,0.0625,0,1.00125,6.08875,0,4.350006,,,0,0,5.09375,79.98159,0,26.07731,0.004733468,-0.02539484,0.02128162,0,0.0044,0,0.0075,-0.0165,-20.47875,1.03,1.090625,0.03125,84.94875,70.27312,76.88813,-0.1030524,-0.0637496,0.04790226,13.74796,-85.62656,-176.267
158,19/04/2024 7:50:56,0,,0,0,1.016875,6.073125,0,2.962524,,,0,0,5.09375,83.10778,0,26.07731,0.004733468,-0.02539484,0.02066137,0,0.0044,0,0.0075,-0.0165,-20.47875,1.021875,1.090625,0,84.94875,70.20563,76.88813,-0.1823605,-0.06120476,-0.0006744638,12.91623,-84.93272,-175.6821
159,19/04/2024 7:50:58,0,,0.0625,0,1.016875,6.080625,0,2.962524,,,0,0,5.09375,79.98159,0,26.07731,0.004733468,-0.02539484,0.02066137,0,0.0044,0,0.0075,-0.0165,-20.47875,1.021875,1.090625,0,84.88126,70.27312,76.88813,-0.174453,-0.05600847,0.01913103,11.59227,-84.71452,-174.6225
160,19/04/2024 7:50:59,0,,0,0,1.024375,6.073125,0,1.087524,,,0,0,5.09375,79.98159,0,26.07731,0.004733468,-0.02539484,0.02066137,0,0.0044,0,0.0075,-0.0165,-20.47875,1.03,1.0825,0.03125,84.88126,70.27312,76.88813,-0.1390481,-0.05105109,-0.01000693,9.947305,-84.84369,-173.2256
161,19/04/2024 7:51:01,0,,0,0,1.024375,6.073125,0,1.087524,,,0,0,5.09375,83.10778,0,26.07731,0.005308042,-0.02658966,0.02066137,0,0,0.00495,0.0075,-0.0165,-20.47875,1.03,1.090625,0.03125,84.88126,70.27312,76.88813,-0.1329548,-0.05306143,-0.04252793,8.731564,-85.04059,-172.2579
162,19/04/2024 7:51:02,0,,0,0,1.016875,6.073125,0,0.6000061,,,0,0,5.09375,83.10778,0,26.07731,0.005308042,-0.02539484,0.02066137,0,0.0044,0.00495,0.0075,-0.0165,-20.47875,1.021875,1.090625,0.03125,84.94875,70.27312,76.88813,-0.0953825,-0.07258119,0.0426135,9.37426,-85.55586,-173.1234
163,19/04/2024 7:51:04,0,,0.0625,0,1.016875,6.073125,0,3.900024,,,0,0,5.09375,79.98159,0,26.07731,0.005308042,-0.02539484,0.02066137,0,0.0044,0.00495,0.0165,-0.0165,-20.47875,1.03,1.090625,0,84.88126,70.27312,76.88813,-0.05624945,-0.05852558,0.0239756,9.706086,-86.26136,-173.7395
164,19/04/2024 7:51:05,0,,0.0625,0,1.016875,6.080625,0,-1.724976,,,0,0,5.09375,79.98159,0,26.07731,0.004733468,-0.02539484,0.02066137,0,0.0044,0,0.0075,-0.0165,-20.47875,1.03,1.090625,0,84.94875,70.27312,76.88813,-0.08999433,-0.02232396,0.01319158,8.617978,-86.34254,-172.8179
165,19/04/2024 7:51:07,0,,0,0,1.016875,6.080625,0,-0.2999573,,,0,0,5.125,79.98159,0,26.07731,0.004733468,-0.02658966,0.02066137,0,0.0044,0.00495,0.0075,-0.0165,-20.47875,1.03,1.090625,0.03125,84.88126,70.20563,76.88813,-0.1129325,-0.04489887,0.09474047,12.55756,-86.31692,-177.0453
166,19/04/2024 7:51:08,0,,0.0625,0,1.016875,6.08875,0,2.025024,,,0,0,5.125,79.98159,0,26.07731,0.005308042,-0.02658966,0.02128162,0,0.0044,0.00495,0.0075,-0.0165,-20.47875,1.021875,1.090625,0,84.88126,70.27312,76.88813,-0.1673803,-0.02709706,-0.007298355,13.1882,-85.80075,-177.923
167,19/04/2024 7:51:10,0,,0.0625,0,1.00875,6.080625,0,3.450043,,,0,0,5.09375,83.10778,0,26.07731,0.004733468,-0.02539484,0.02066137,0,0.0044,0,0.0075,-0.0165,-20.47875,1.03,1.090625,0.03125,84.94875,70.27312,76.88813,-0.1709137,0.008716593,-0.02157709,12.30635,-85.39414,-177.2545
168,19/04/2024 7:51:11,0,,0.0625,0,1.016875,6.073125,0,2.025024,,,0,0,5.09375,79.98159,0,26.07731,0.005308042,-0.02658966,0.02066137,0,0.0044,0,0.0075,-0.0165,-20.47875,1.03,1.090625,0,84.88126,70.20563,76.88813,-0.1772521,0.02402353,0.0498975,12.33581,-84.9715,-177.4475
169,19/04/2024 7:51:13,0,,0.0625,0,1.024375,6.080625,0,1.087524,,,0,0,5.09375,79.98159,0,26.07731,0.004733468,-0.02658966,0.02066137,0,0,0.00495,0.0075,-0.0165,-20.47875,1.03,1.090625,0,84.94875,70.27312,76.88813,-0.1723976,0.03914086,-0.009941371,11.51247,-84.72563,-176.7279
170,19/04/2024 7:51:14,0,,0,0,1.016875,6.073125,0,-1.237457,,,0,0,5.09375,83.10778,0,26.07731,0.005308042,-0.02658966,0.02066137,0,0.0044,0.00495,0.0075,-0.0165,-20.47875,1.03,1.090625,0.03125,84.88126,70.27312,76.88813,-0.1564349,0.0572286,-0.002097511,9.816281,-84.93385,-175.0997
171,19/04/2024 7:51:16,0,,0,0,1.016875,6.073125,0,1.537506,,,0,0,5.09375,79.98159,0,26.07731,0.004733468,-0.02539484,0.02066137,0,0.0044,0,0.0075,-0.0165,-20.47875,1.03,1.0825,0.03125,84.88126,70.20563,76.88813,-0.1640753,0.06611609,0.01930594,7.326326,-85.42775,-172.7237
172,19/04/2024 7:51:18,0,,0,0,1.016875,6.073125,0,1.087524,,,0,0,5.09375,79.98159,0,26.07731,0.004733468,-0.02658966,0.02128162,0,0.0044,0.00495,0.0075,-0.0165,-20.47875,1.03,1.090625,0,84.88126,70.20563,76.88813,-0.1598853,0.03931053,0.0157446,5.507912,-85.91589,-170.8623
173,19/04/2024 7:51:19,0,,0,0,1.016875,6.080625,0,0.1500244,,,0,0,5.09375,79.98159,0,26.07731,0.004733468,-0.02539484,0.02128162,0,0.0044,0,0.0075,-0.0165,-20.47875,1.03,1.090625,0.03125,84.88126,70.20563,76.88813,-0.1571658,-0.01653794,0.08477411,6.027369,-86.19503,-171.3878
174,19/04/2024 7:51:21,0,,0.0625,0,1.00875,6.080625,0,0.1500244,,,0,0,5.09375,79.98159,0,26.07731,0.004733468,-0.02539484,0.02066137,0,0.0044,0.00495,0.0075,-0.0165,-20.47875,1.021875,1.090625,0,84.88126,70.20563,76.88813,-0.1607504,-0.04619442,0.06611616,7.132385,-86.29603,-172.617
175,19/04/2024 7:51:22,0,,0,0,1.00875,6.073125,0,-0.7874756,,,0,0,5.09375,79.98159,0,26.07731,0.005308042,-0.02539484,0.02066137,0,0.0044,0,0.0075,-0.0165,-20.47875,1.021875,1.090625,0.03125,84.94875,70.27312,76.88813,-0.1871996,-0.03200076,0.03177002,9.122451,-86.20641,-174.7443
176,19/04/2024 7:51:24,0,,0,0,1.016875,6.073125,0,2.512543,,,0,0,5.125,79.98159,0,26.07731,0.004733468,-0.02539484,0.02128162,0,0,0.00495,0.0165,-0.0165,-20.47875,1.03,1.090625,0.03125,84.88126,70.27312,76.88813,-0.2389081,0.003727321,0.02575005,9.993643,-85.63381,-175.6447
177,19/04/2024 7:51:25,0,,0,0,1.024375,6.073125,0,1.575043,,,0,0,5.09375,79.98159,0,26.07731,0.005308042,-0.02539484,0.02066137,0,0.0044,0,0.0165,-0.0165,-20.47875,1.021875,1.090625,0.03125,84.88126,70.27312,76.88813,-0.249951,0.001042479,0.03313232,12.49216,-85.13646,-178.2725
178,19/04/2024 7:51:27,0,,0.0625,0,1.024375,6.073125,0,-0.3374939,,,0,0,5.09375,79.98159,0,26.07731,0.004733468,-0.02539484,0.02066137,0,0,0,0.0075,-0.0165,-20.47875,1.03,1.090625,0.03125,84.88126,70.20563,76.88813,-0.2888326,0.03250374,-0.0309958,12.45188,-84.63551,-178.366
179,19/04/2024 7:51:28,0,,0,0,1.024375,6.073125,0,3.900024,,,0,0,5.09375,83.10778,0,26.07731,0.004733468,-0.02539484,0.02066137,0,0,0.00495,0.0075,-0.0165,-20.47875,1.021875,1.090625,0,84.88126,70.27312,76.88813,-0.2678443,0.06871788,-0.0460491,10.97845,-84.72514,-176.9873
180,19/04/2024 7:51:30,0,,0,0,1.024375,6.080625,0,-2.174957,,,0,0,5.09375,79.98159,0,26.07731,0.004733468,-0.02539484,0.02066137,0,0.0044,0.00495,0.0075,-0.0165,-20.47875,1.03,1.090625,0,84.94875,70.27312,76.88813,-0.1925747,0.06782357,0.06021139,9.688854,-85.20055,-175.6082
181,19/04/2024 7:51:31,0,,0,0,1.016875,6.073125,0,-0.7874756,,,0,0,5.09375,79.98159,0,26.07731,0.004733468,-0.02658966,0.02066137,0,0.0044,0,0.0075,-0.0165,-20.47875,1.021875,1.090625,0,84.94875,70.27312,76.88813,-0.1489145,0.05062285,0.04747152,9.297108,-85.60746,-175.2012
182,19/04/2024 7:51:33,0,,0.0625,0,1.024375,6.080625,0,1.087524,,,0,0,5.09375,79.98159,0,26.07731,0.005308042,-0.02539484,0.02128162,0,0.0044,0,0.0075,-0.0165,-20.47875,1.03,1.090625,0.03125,84.94875,70.20563,76.88813,-0.1172372,0.0626663,-0.009694819,6.471475,-86.15643,-172.3712
183,19/04/2024 7:51:34,0,,0.0625,0,1.00875,6.080625,0,1.087524,,,0,0,5.09375,79.98159,0,26.07731,0.004733468,-0.02658966,0.02066137,0,0,0,0.0075,-0.0165,-20.47875,1.03,1.090625,0.03125,84.94875,70.27312,76.88813,-0.108774,0.045123,0.08490463,5.49609,-86.59475,-171.4044
184,19/04/2024 7:51:36,0,,0,0,1.00875,6.080625,0,1.537506,,,0,0,5.09375,79.98159,0,26.07731,0.004733468,-0.02539484,0.02066137,0,0.0044,0.00495,0.0075,-0.0165,-20.47875,1.03,1.090625,0,84.94875,70.27312,76.88813,-0.150886,0.004547499,0.05604148,7.319336,-86.59635,-173.3174
185,19/04/2024 7:51:37,0,,0,0,1.00875,6.080625,0,2.962524,,,0,0,5.09375,79.98159,0,26.07731,0.004733468,-0.02539484,0.02066137,0,0.0044,0.00495,0.0075,-0.0165,-20.47875,1.03,1.090625,0.03125,84.94875,70.20563,76.88813,-0.2463204,0.002461846,-0.04470706,8.968809,-85.89994,-175.0888
186,19/04/2024 7:51:39,0,,0,0,1.00875,6.080625,0,2.512543,,,0,0,5.09375,79.98159,0,26.07731,0.004733468,-0.02539484,0.02066137,0,0.0044,0.00495,0.0165,-0.0165,-20.47875,1.021875,1.090625,0,84.94875,70.27312,76.88813,-0.2570848,0.05194161,-0.002698912,8.399258,-85.40704,-174.6731
187,19/04/2024 7:51:40,0,,0.0625,0,1.024375,6.080625,0,1.087524,,,0,0,5.09375,79.98159,0,26.07731,0.004733468,-0.02658966,0.02066137,0,0,0.00495,0.0075,-0.0165,-20.47875,1.021875,1.090625,0.03125,84.88126,70.20563,76.88813,-0.2302402,0.08951826,-0.02664514,7.832541,-85.2821,-174.2091
188,19/04/2024 7:51:42,0,,0,0,1.016875,6.073125,0,2.025024,,,0,0,5.09375,79.98159,0,26.07731,0.004733468,-0.02539484,0.02066137,0,0,0.00495,0.0165,-0.0165,-20.47875,1.021875,1.090625,0,84.88126,70.27312,76.88813,-0.2424673,0.08188762,-0.06041991,9.278019,-84.83567,-175.7612
189,19/04/2024 7:51:43,0,,0,0,1.016875,6.073125,0,2.475006,,,0,0,5.09375,83.10778,0,26.07731,0.004733468,-0.02539484,0.02066137,0,0.0044,0.00495,0.0075,-0.0165,-20.47875,1.03,1.090625,0.03125,84.94875,70.20563,76.88813,-0.2222967,0.09926883,-0.04412593,8.602158,-84.83353,-175.2102
190,19/04/2024 7:51:45,0,,0,0,1.024375,6.080625,0,0.1500244,,,0,0,5.09375,79.98159,0,26.07731,0.004733468,-0.02539484,0.02066137,0,0,0.00495,0.0075,-0.0165,-20.47875,1.03,1.0825,0.03125,84.88126,70.20563,76.88813,-0.203481,0.09283547,-0.02230616,7.043091,-85.24692,-173.7294
191,19/04/2024 7:51:47,0,,0,0,1.016875,6.073125,0,0.1500244,,,0,0,5.09375,79.98159,0,26.07731,0.004733468,-0.02539484,0.02066137,0,0,0.00495,0.0075,-0.0165,-20.47875,1.021875,1.090625,0.03125,84.94875,70.20563,76.88813,-0.1797222,0.003876714,0.07522541,9.925321,-85.93962,-176.798
192,19/04/2024 7:51:48,0,,0,0,1.00875,6.080625,0,-0.7874756,,,0,0,5.09375,79.98159,0,26.07731,0.004733468,-0.02539484,0.02128162,0,0.0044,0.00495,0.0075,-0.0165,-20.47875,1.03,1.0825,0,84.94875,70.27312,76.88813,-0.1809814,-0.05580563,0.002242715,12.64194,-86.15276,-179.6696
193,19/04/2024 7:51:50,0,,0,0,1.016875,6.080625,0,2.025024,,,0,0,5.125,79.98159,0,26.07731,0.004733468,-0.02539484,0.02066137,0,0,0,0.0165,-0.0165,-20.47875,1.03,1.090625,0,84.88126,70.27312,76.88813,-0.1368788,-0.02885728,0.03282426,12.57804,-86.45354,-179.7274
194,19/04/2024 7:51:51,0,,0,0,1.016875,6.08875,0,2.025024,,,0,0,5.09375,79.98159,0,26.07731,0.004733468,-0.02658966,0.02128162,0,0.0044,0.00495,0.0075,-0.0165,-20.47875,1.021875,1.090625,0,84.88126,70.27312,76.88813,-0.159784,0.04584293,0.02805552,9.400492,-86.3541,-176.6678
195,19/04/2024 7:51:53,0,,0,0,1.00875,6.080625,0,0.6375427,,,0,0,5.09375,79.98159,0,26.07731,0.004733468,-0.02658966,0.02066137,0,0.0044,0.00495,0.0075,-0.0165,-20.47875,1.03,1.090625,0,84.88126,70.27312,76.88813,-0.2055648,0.07770526,-0.03141397,8.114057,-85.97843,-175.5212
196,19/04/2024 7:51:54,0,,0,0,1.016875,6.073125,0,2.962524,,,0,0,5.09375,79.98159,0,26.07731,0.005308042,-0.02539484,0.02128162,0,0.0044,0,0.0075,-0.0165,-20.47875,1.021875,1.090625,0,84.88126,70.27312,76.88813,-0.2860807,0.08065335,0.01589747,7.598878,-85.12579,-175.1601
197,19/04/2024 7:51:56,0,,0,0,1.016875,6.080625,0,2.962524,,,0,0,5.09375,83.10778,0,26.07731,0.004733468,-0.02539484,0.02066137,0,0.0044,0.00495,0.0075,-0.0165,-20.47875,1.03,1.090625,0.03125,84.94875,70.27312,76.88813,-0.2787331,0.09557056,-0.06814832,6.203166,-84.84153,-173.9949
198,19/04/2024 7:51:57,0,,0.0625,0,1.016875,6.073125,0,1.087524,,,0,0,5.09375,79.98159,0,26.07731,0.004733468,-0.02539484,0.02066137,0,0.0044,0,0.0165,-0.0165,-20.47875,1.021875,1.090625,0.03125,84.88126,70.27312,76.88813,-0.2523612,0.1229093,-0.06793918,3.886949,-84.99886,-171.7326
199,19/04/2024 7:51:59,0,,0.0625,0,1.016875,6.073125,0,2.962524,,,0,0,5.09375,79.98159,0,26.07731,0.004733468,-0.02539484,0.02066137,0,0.0044,0.00495,0.0075,-0.0165,-20.47875,1.03,1.090625,0.03125,84.88126,70.27312,76.88813,-0.1947462,0.08222509,0.07591032,4.161956,-85.39225,-172.1595
200,19/04/2024 7:52:00,0,,0,0,1.016875,6.080625,0,1.087524,,,0,0,5.09375,79.98159,0,26.07731,0.005308042,-0.02539484,0.02066137,0,0.0044,0,0.0075,-0.0165,-20.47875,1.03,1.090625,0,84.88126,70.20563,76.88813,-0.1431975,0.04424762,0.02068692,4.530837,-85.86139,-172.6684
201,19/04/2024 7:52:02,0,,0.0625,0,1.016875,6.073125,0,-1.274994,,,0,0,5.09375,79.98159,0,26.07731,0.004733468,-0.02539484,0.02128162,0,0,0,0.0165,-0.0165,-20.47875,1.021875,1.090625,0.03125,84.88126,70.27312,76.88813,-0.1753566,0.02736822,0.01102888,5.259105,-86.05302,-173.5628
202,19/04/2024 7:52:03,0,,0.0625,0,1.00875,6.080625,0,1.575043,,,0,0,5.09375,83.10778,0,26.07731,0.004733468,-0.02539484,0.02128162,0,0,0.00495,0.0075,-0.0165,-20.47875,1.021875,1.090625,0,84.88126,70.27312,76.88813,-0.1807193,0.03207029,0.02929532,4.431869,-86.56828,-173.0139
203,19/04/2024 7:52:05,0,,0,0,1.016875,6.073125,0,2.475006,,,0,0,5.09375,79.98159,0,26.07731,0.004733468,-0.02539484,0.02066137,0,0,0,0.0075,-0.0165,-20.47875,1.021875,1.090625,0.03125,84.88126,70.27312,76.88813,-0.2353319,0.04970686,-0.02667719,3.180072,-86.51916,-171.8227
204,19/04/2024 7:52:06,0,,0,0,1.00875,6.080625,0,0.1500244,,,0,0,5.09375,79.98159,0,26.07731,0.004733468,-0.02539484,0.02128162,0,0,0.00495,0.0075,-0.0165,-20.47875,1.03,1.090625,0.03125,84.94875,70.27312,76.88813,-0.2733958,0.08255971,-0.01294455,1.646256,-86.28906,-170.5751
205,19/04/2024 7:52:08,0,,0,0,1.00875,6.073125,0,-1.274994,,,0,0,5.09375,83.10778,0,26.07731,0.004733468,-0.02539484,0.02066137,0,0.0044,0.00495,0.0075,-0.0165,-20.47875,1.03,1.090625,0.03125,84.88126,70.27312,76.88813,-0.3155081,0.1292958,-0.07587,359.2941,-85.91731,-168.5625
206,19/04/2024 7:52:10,0,,0.0625,0,1.00875,6.080625,0,-1.724976,,,0,0,5.09375,79.98159,0,26.07731,0.005308042,-0.02539484,0.02128162,0,0.0044,0.00495,0.0075,-0.0165,-20.47875,1.021875,1.090625,0,84.94875,70.27312,76.88813,-0.3025118,0.131109,-0.05800813,357.32,-85.86173,-166.8368
207,19/04/2024 7:52:11,0,,0.0625,0,1.016875,6.080625,0,1.087524,,,0,0,5.09375,79.98159,0,26.07731,0.004733468,-0.02658966,0.02066137,0,0.0044,0,0.0075,-0.0165,-20.47875,1.021875,1.0825,0,84.88126,70.27312,76.88813,-0.3053361,0.07615163,-0.02603684,357.3042,-85.61848,-167.0826
208,19/04/2024 7:52:12,0,,0.0625,0,1.016875,6.080625,0,2.962524,,,0,0,5.09375,79.98159,0,26.07731,0.004733468,-0.02658966,0.02066137,0,0.0044,0,0.0075,-0.0165,-20.47875,1.021875,1.090625,0,84.88126,70.27312,76.88813,-0.3164305,0.01142828,-0.0285923,358.7617,-85.18888,-168.9875
209,19/04/2024 7:52:13,0,,0,0,1.016875,6.080625,0,2.962524,,,0,0,5.09375,79.98159,0,26.07731,0.004733468,-0.02658966,0.02066137,0,0.0044,0,0.0075,-0.0165,-20.47875,1.021875,1.090625,0.03125,84.88126,70.27312,76.88813,-0.3164305,0.01142828,-0.0285923,358.7617,-85.18888,-168.9875
210,19/04/2024 7:52:14,0,,0,0,1.016875,6.065,0,0.6375427,,,0,0,5.09375,79.98159,0,26.07731,0.005308042,-0.02658966,0.02066137,0,0.0044,0,0.0075,-0.0165,-20.47875,1.021875,1.090625,0.03125,84.88126,70.27312,76.88813,-0.2876387,0.002394409,-0.03153313,358.5267,-85.35764,-169.1404
211,19/04/2024 7:52:16,0,,0.0625,0,1.00875,6.073125,0,-1.237457,,,0,0,5.09375,79.98159,0,26.07731,0.004733468,-0.02539484,0.02066137,0,0,0.00495,0.0075,-0.0165,-20.47875,1.03,1.090625,0.03125,84.94875,70.27312,76.88813,-0.3171411,-0.001384253,-0.04507527,0.5127824,-85.4796,-171.5387
212,19/04/2024 7:52:17,0,,0.0625,0,1.016875,6.080625,0,0.1500244,,,0,0,5.09375,79.98159,0,26.07731,0.004733468,-0.02539484,0.02066137,0,0.0044,0.00495,0.0075,-0.0165,-20.47875,1.021875,1.090625,0,84.88126,70.27312,76.88813,-0.2898021,-0.002838063,-0.02062025,3.34535,-85.88732,-174.7284
213,19/04/2024 7:52:19,0,,0,0,1.00875,6.080625,0,-0.7874756,,,0,0,5.09375,79.98159,0,26.07731,0.005308042,-0.02539484,0.02066137,0,0.0044,0.00495,0.0075,-0.0165,-20.47875,1.021875,1.090625,0.03125,84.88126,70.27312,76.88813,-0.3237955,0.04130095,-0.02970164,4.337424,-85.98115,-176.1807
214,19/04/2024 7:52:20,0,,0,0,1.00875,6.080625,0,-1.724976,,,0,0,5.09375,83.10778,0,26.07731,0.004733468,-0.02539484,0.02128162,0,0.0044,0.00495,0.0165,-0.0165,-20.47875,1.021875,1.090625,0.03125,84.88126,70.27312,76.88813,-0.3671744,0.07277284,-0.04976961,5.547668,-86.09606,-177.8482
215,19/04/2024 7:52:22,0,,0.0625,0,1.016875,6.080625,0,-1.724976,,,0,0,5.09375,79.98159,0,26.07731,0.004733468,-0.02539484,0.02066137,0,0.0044,0,0.0075,-0.0165,-20.47875,1.03,1.090625,0,84.88126,70.27312,76.88813,-0.3681204,0.0860224,0.01241435,5.181041,-86.41712,-177.9169
